[{"경찰서":"서울마포","관서명":"서강","구분":"지구대","전화번호":"02-334-4975","주소":"서울특별시 마포구  독막로22길 8(창전동, 서강지구대)","Latitude": 37.5473472146038,"Longitude":126.9293114267},{"경찰서":"서울마포","관서명":"공덕","구분":"지구대","전화번호":"02-703-0492","주소":"서울특별시 마포구 마포대로 195-1","Latitude":37.5518094602,"Longitude":126.9540398182},{"경찰서":"서울마포","관서명":"월드컵","구분":"지구대","전화번호":"02-373-1113","주소":"서울특별시 마포구  월드컵북로 30길 24","Latitude":37.5687316891,"Longitude":126.9090823473},{"경찰서":"서울마포","관서명":"홍익","구분":"지구대","전화번호":"02-334-8150","주소":"서울특별시 마포구  양화로11길 63","Latitude":37.5518763429,"Longitude":126.9134625073},{"경찰서":"서울마포","관서명":"용강","구분":"지구대","전화번호":"02-716-6391","주소":"서울특별시 마포구 토정로31길 35","Latitude":37.5425613406,"Longitude":126.9430833756},{"경찰서":"서울마포","관서명":"상암","구분":"파출소","전화번호":"02-309-9525","주소":"서울특별시 마포구  매봉산로 76","Latitude":37.5782806849,"Longitude":126.8938446196},{"경찰서":"서울마포","관서명":"망원","구분":"파출소","전화번호":"02-337-5908","주소":"서울특별시 마포구  망원로2길 63","Latitude":37.5543394288,"Longitude":126.902733477},{"경찰서":"서울마포","관서명":"연남","구분":"파출소","전화번호":"02-334-4974","주소":"서울특별시 마포구  연남로 4","Latitude":37.5603356082,"Longitude":126.9237621302}]